Date/time,Num Foto,Temperature,Humidity,Pressure,Pitch,Roll,Yaw,Compass N:,Latitude,Longitude,Reverse-geocoder
2023-05-04 07:03:08.688348,1,54.4583,32.2654,999.5818,295.373,209.745,294.679,294.67891896688195,45.29294937193674,-88.9945323303055,IERS2010 latitude +45.2929 N longitude -88.9945 E elevation 422667.8 m
2023-05-04 07:03:24.330549,2,54.2836,32.2833,999.6406,295.373,209.745,294.684,294.69254519427614,45.77083169464396,-87.77836294220673,IERS2010 latitude +45.7708 N longitude -87.7784 E elevation 422806.1 m
2023-05-04 07:03:39.882108,3,54.1917,32.3729,999.6243,295.373,209.745,294.703,294.71590444123757,46.22701165204476,-86.55980728059615,IERS2010 latitude +46.2270 N longitude -86.5598 E elevation 422938.3 m
2023-05-04 07:03:55.584332,4,54.5809,32.3012,999.637,295.373,209.745,294.738,294.76637953920397,46.67330635034973,-85.30644051167295,IERS2010 latitude +46.6733 N longitude -85.3064 E elevation 423067.8 m
2023-05-04 07:04:11.151500,5,54.3265,32.3729,999.6355,295.373,209.745,294.798,294.8323796571538,47.10037559353577,-84.04302899288798,IERS2010 latitude +47.1004 N longitude -84.0430 E elevation 423191.8 m
2023-05-04 07:04:26.834872,6,53.5633,32.2833,999.6211,295.373,209.745,294.862,294.8959345673808,47.51500819906353,-82.7482868717254,IERS2010 latitude +47.5150 N longitude -82.7483 E elevation 423312.4 m
2023-05-04 07:04:42.563067,7,54.5687,32.2654,999.6423,295.373,209.745,294.938,294.98687853617946,47.91416464198785,-81.42929456315072,IERS2010 latitude +47.9142 N longitude -81.4293 E elevation 423428.6 m
2023-05-04 07:04:58.257064,8,54.6238,32.2475,999.6294,295.373,209.745,295.035,295.08205039207445,48.29574285657426,-80.09159602007745,IERS2010 latitude +48.2957 N longitude -80.0916 E elevation 423539.8 m
2023-05-04 07:05:13.957118,9,53.8361,32.2654,999.626,295.373,209.745,295.14,295.196210173862,48.65990052619328,-78.73352738017721,IERS2010 latitude +48.6599 N longitude -78.7335 E elevation 423646.1 m
2023-05-04 07:05:29.647416,10,54.5012,32.355,999.6465,295.373,209.745,295.262,295.3359831650372,49.00617771603626,-77.35550729918454,IERS2010 latitude +49.0062 N longitude -77.3555 E elevation 423747.2 m
2023-05-04 07:05:45.350679,11,54.6177,32.3908,999.5979,295.373,209.745,295.419,295.506157328208,49.33425397192362,-75.9574563383998,IERS2010 latitude +49.3343 N longitude -75.9575 E elevation 423843.1 m
2023-05-04 07:06:01.048617,12,54.4951,32.3012,999.6125,295.373,209.745,295.601,295.7015690403621,49.64361924856264,-74.54014960189488,IERS2010 latitude +49.6436 N longitude -74.5401 E elevation 423933.7 m
2023-05-04 07:06:16.726392,13,54.5564,32.3729,999.6265,295.373,209.745,295.813,295.933412981549,49.9333185082688,-73.10686947609238,IERS2010 latitude +49.9333 N longitude -73.1069 E elevation 424018.7 m
2023-05-04 07:06:32.452242,14,54.6514,32.4087,999.6492,295.373,209.745,296.059,296.1852010751124,50.20425184625906,-71.65159010666781,IERS2010 latitude +50.2043 N longitude -71.6516 E elevation 424098.3 m
2023-05-04 07:06:48.147733,15,54.1181,32.3729,999.6431,295.373,209.745,296.324,296.47501966197433,50.45459479307607,-70.18259803103295,IERS2010 latitude +50.4546 N longitude -70.1826 E elevation 424172.1 m
2023-05-04 07:07:03.840071,16,54.4859,32.5161,999.6729,295.373,209.745,296.628,296.78139462738443,50.68447836727533,-68.69826612746566,IERS2010 latitude +50.6845 N longitude -68.6983 E elevation 424240.1 m
2023-05-04 07:07:19.534097,17,54.3143,32.355,999.6121,295.373,209.745,296.937,297.09317227242803,50.893590477616875,-67.19935694860074,IERS2010 latitude +50.8936 N longitude -67.1994 E elevation 424302.3 m
2023-05-04 07:07:35.234910,18,54.489,32.3371,999.6121,295.373,209.745,297.256,297.42246935269264,51.08166175174054,-65.68640859476798,IERS2010 latitude +51.0817 N longitude -65.6864 E elevation 424358.5 m
2023-05-04 07:07:50.923473,19,54.4798,32.3191,999.585,295.373,209.745,297.592,297.7624625091976,51.248157296828495,-64.16255775652408,IERS2010 latitude +51.2482 N longitude -64.1626 E elevation 424408.6 m
2023-05-04 07:08:06.626075,20,54.5135,32.4445,999.5964,295.373,209.745,297.932,298.1014994392186,51.39306821947594,-62.62661418060483,IERS2010 latitude +51.3931 N longitude -62.6266 E elevation 424452.7 m
2023-05-04 07:08:22.324763,21,54.3694,32.4266,999.6177,295.373,209.745,298.273,298.4457819545223,51.51596645338863,-61.081648231818946,IERS2010 latitude +51.5160 N longitude -61.0816 E elevation 424490.7 m
2023-05-04 07:08:38.018629,22,54.6698,32.4803,999.5706,295.373,209.745,298.624,298.80485865956825,51.61664539084513,-59.529261897362424,IERS2010 latitude +51.6166 N longitude -59.5293 E elevation 424522.4 m
2023-05-04 07:08:53.714932,23,54.4215,32.4982,999.6089,295.373,209.745,298.989,299.17491830879953,51.69497712352597,-57.97031042211921,IERS2010 latitude +51.6950 N longitude -57.9703 E elevation 424548.0 m
2023-05-04 07:09:09.422477,24,54.397,32.4982,999.5798,295.373,209.745,299.363,299.5530102604947,51.7508293299592,-56.40582114939401,IERS2010 latitude +51.7508 N longitude -56.4058 E elevation 424567.2 m
2023-05-04 07:09:25.142091,25,54.6147,32.5161,999.5459,295.373,209.745,299.743,299.9370854579029,51.78408809421019,-54.83611577793679,IERS2010 latitude +51.7841 N longitude -54.8361 E elevation 424580.2 m
2023-05-04 07:09:40.838346,26,54.4828,32.4803,999.5977,295.373,209.745,300.134,300.33311348635857,51.794608857919094,-53.267576137860125,IERS2010 latitude +51.7946 N longitude -53.2676 E elevation 424586.9 m
2023-05-04 07:09:56.534575,27,54.4583,32.534,999.5728,295.373,209.745,300.532,300.734714949177,51.78245050825519,-51.69908778505867,IERS2010 latitude +51.7825 N longitude -51.6991 E elevation 424587.3 m
2023-05-04 07:10:12.236194,28,54.4093,32.6057,999.531,295.373,209.745,300.944,301.1589516589048,51.74762018842203,-50.13179650596093,IERS2010 latitude +51.7476 N longitude -50.1318 E elevation 424581.4 m
2023-05-04 07:10:27.920836,29,54.2989,32.5699,999.5525,295.373,209.745,301.382,301.6086991251826,51.69024654046931,-48.569319471248775,IERS2010 latitude +51.6902 N longitude -48.5693 E elevation 424569.2 m
2023-05-04 07:10:43.620159,30,54.4828,32.6236,999.5283,295.373,209.745,301.836,302.06392440317484,51.61034272096131,-47.01061030595384,IERS2010 latitude +51.6103 N longitude -47.0106 E elevation 424550.7 m
2023-05-04 07:10:59.344906,31,54.4767,32.5878,999.592,295.373,209.745,302.288,302.51007918994924,51.5078911825436,-45.45574195124871,IERS2010 latitude +51.5079 N longitude -45.4557 E elevation 424525.9 m
2023-05-04 07:11:15.045673,32,54.5043,32.5699,999.5735,295.373,209.745,302.731,302.9528427878007,51.38339594261299,-43.91124425137367,IERS2010 latitude +51.3834 N longitude -43.9112 E elevation 424495.0 m
2023-05-04 07:11:30.772937,33,54.4185,32.6415,999.5552,295.373,209.745,303.176,303.3983008952798,51.23666269718584,-42.37356802375479,IERS2010 latitude +51.2367 N longitude -42.3736 E elevation 424457.9 m
2023-05-04 07:11:46.473415,34,54.3327,32.5878,999.5237,295.373,209.745,303.622,303.8465696256023,51.06845401423313,-40.84946039713231,IERS2010 latitude +51.0685 N longitude -40.8495 E elevation 424414.7 m
2023-05-04 07:12:02.192323,35,54.6361,32.6057,999.5298,295.373,209.745,304.073,304.30505973401773,50.87857798575721,-39.33575758104064,IERS2010 latitude +50.8786 N longitude -39.3358 E elevation 424365.4 m
2023-05-04 07:12:17.891875,36,54.1855,32.6236,999.5161,295.373,209.745,304.56,304.81158997796047,50.667806742907786,-37.837347802047425,IERS2010 latitude +50.6678 N longitude -37.8373 E elevation 424310.2 m
2023-05-04 07:12:33.585581,37,54.2897,32.6594,999.533,295.373,209.745,305.061,305.30942880618437,50.43635084550489,-36.354071374805926,IERS2010 latitude +50.4364 N longitude -36.3541 E elevation 424249.1 m
2023-05-04 07:12:49.301936,38,54.2928,32.7668,999.5527,295.373,209.745,305.557,305.802858747299,50.18420330800869,-34.884776411693466,IERS2010 latitude +50.1842 N longitude -34.8848 E elevation 424182.2 m
2023-05-04 07:13:05.003658,39,54.4307,32.6594,999.5339,295.373,209.745,306.043,306.2821638572101,49.912195766773515,-33.43311510015303,IERS2010 latitude +49.9122 N longitude -33.4331 E elevation 424109.5 m
2023-05-04 07:13:20.721411,40,54.2867,32.7131,999.5356,295.373,209.745,306.518,306.7554003440436,49.62026861558863,-31.997532495598414,IERS2010 latitude +49.6203 N longitude -31.9975 E elevation 424031.2 m
2023-05-04 07:13:36.422172,41,54.4307,32.6057,999.5527,295.373,209.745,306.991,307.22625309485676,49.30946648642128,-30.58184482537836,IERS2010 latitude +49.3095 N longitude -30.5818 E elevation 423947.5 m
2023-05-04 07:13:52.117138,42,54.4461,32.7848,999.531,295.373,209.745,307.463,307.69572614745755,48.97997487653925,-29.185385317429496,IERS2010 latitude +48.9800 N longitude -29.1854 E elevation 423858.4 m
2023-05-04 07:14:07.809507,43,54.2376,32.731,999.5366,295.373,209.745,307.932,308.16441714339845,48.63234707108806,-27.809098047517942,IERS2010 latitude +48.6323 N longitude -27.8091 E elevation 423764.1 m
2023-05-04 07:14:23.503134,44,54.4215,32.6594,999.5471,295.373,209.745,308.394,308.6217495347496,48.26690912053569,-26.452898903156864,IERS2010 latitude +48.2669 N longitude -26.4529 E elevation 423664.6 m
2023-05-04 07:14:39.194187,45,54.5166,32.7131,999.5244,295.373,209.745,308.85,309.072767416213,47.88429874308294,-25.117782347642155,IERS2010 latitude +47.8843 N longitude -25.1178 E elevation 423560.2 m
2023-05-04 07:14:54.885431,46,54.3572,32.6773,999.5549,295.373,209.745,309.293,309.51225252326293,47.48474228458046,-23.803198236100176,IERS2010 latitude +47.4847 N longitude -23.8032 E elevation 423450.9 m
2023-05-04 07:15:10.590416,47,54.4093,32.8027,999.5361,295.373,209.745,309.736,309.95757744205315,47.06834927546986,-22.508340936604174,IERS2010 latitude +47.0683 N longitude -22.5083 E elevation 423336.9 m
2023-05-04 07:15:26.299256,48,54.4583,32.8027,999.5334,295.373,209.745,310.18,310.40131092676677,46.636032168399346,-21.234849906400846,IERS2010 latitude +46.6360 N longitude -21.2348 E elevation 423218.3 m
2023-05-04 07:15:42.006375,49,54.3541,32.7668,999.5093,295.373,209.745,310.62,310.83501427868424,46.18844902007125,-19.983315640970858,IERS2010 latitude +46.1884 N longitude -19.9833 E elevation 423095.3 m
2023-05-04 07:15:57.709293,50,54.2315,32.6952,999.5422,295.373,209.745,311.05,311.2661460643792,45.72580204186914,-18.752991137895542,IERS2010 latitude +45.7258 N longitude -18.7530 E elevation 422968.1 m
2023-05-04 07:16:13.402657,51,54.5595,32.8027,999.5247,295.373,209.745,311.484,311.7020555673986,45.24910746512906,-17.545234782713933,IERS2010 latitude +45.2491 N longitude -17.5452 E elevation 422837.1 m
2023-05-04 07:16:29.095799,52,54.5503,32.7668,999.5166,295.373,209.745,311.92,312.1355335230735,44.75842437821907,-16.35885004341852,IERS2010 latitude +44.7584 N longitude -16.3589 E elevation 422702.1 m
2023-05-04 07:16:44.784686,53,54.3602,32.8027,999.5107,295.373,209.745,312.349,312.5599648931926,44.254354272499064,-15.194018629225551,IERS2010 latitude +44.2544 N longitude -15.1940 E elevation 422563.6 m
2023-05-04 07:17:00.469562,54,54.0323,32.8206,999.5046,295.373,209.745,312.77,312.97930435728557,43.73737908689488,-14.05057826665329,IERS2010 latitude +43.7374 N longitude -14.0506 E elevation 422421.7 m
2023-05-04 07:17:16.137291,55,54.2959,32.8564,999.4954,295.373,209.745,313.19,313.3996444440919,43.20837043254295,-12.929145681381922,IERS2010 latitude +43.2084 N longitude -12.9291 E elevation 422276.6 m
2023-05-04 07:17:31.806448,56,54.4399,32.8922,999.5066,295.373,209.745,313.61,313.8247520029389,42.667194227211944,-11.828177246268588,IERS2010 latitude +42.6672 N longitude -11.8282 E elevation 422128.5 m
2023-05-04 07:17:47.464901,57,54.5625,32.9817,999.5288,295.373,209.745,314.04,314.2541899017197,42.1146815932282,-10.748158594561048,IERS2010 latitude +42.1147 N longitude -10.7482 E elevation 421977.7 m
2023-05-04 07:18:03.117818,58,54.1794,32.8564,999.509,295.373,209.745,314.468,314.6799668191054,41.551077898622836,-9.68836613588921,IERS2010 latitude +41.5511 N longitude -9.6884 E elevation 421824.3 m
2023-05-04 07:18:18.775687,59,54.1058,32.8206,999.5068,295.373,209.745,314.892,315.1011299437067,40.976590251533025,-8.648057342419404,IERS2010 latitude +40.9766 N longitude -8.6481 E elevation 421668.5 m
2023-05-04 07:18:34.479888,60,54.2039,32.8564,999.5278,295.373,209.745,315.307,315.51666157733735,40.38957428532573,-7.623366265420862,IERS2010 latitude +40.3896 N longitude -7.6234 E elevation 421509.9 m
2023-05-04 07:18:50.138320,61,54.1273,32.9459,999.4956,295.373,209.745,315.724,315.93772566419574,39.79431254522504,-6.620719213761837,IERS2010 latitude +39.7943 N longitude -6.6207 E elevation 421349.8 m
2023-05-04 07:19:05.785917,62,54.1303,32.9996,999.4846,295.373,209.745,316.155,316.37041473302145,39.18976392116725,-5.6371165853505065,IERS2010 latitude +39.1898 N longitude -5.6371 E elevation 421188.1 m
2023-05-04 07:19:21.449414,63,54.2254,32.9101,999.4951,295.373,209.745,316.599,316.8363736532943,38.57523686795916,-4.670438658691364,IERS2010 latitude +38.5752 N longitude -4.6704 E elevation 421024.7 m
2023-05-04 07:19:37.134938,64,54.1212,32.9459,999.4622,295.373,209.745,317.071,317.3009631206386,37.95080597517732,-3.7199352453025902,IERS2010 latitude +37.9508 N longitude -3.7199 E elevation 420859.8 m
2023-05-04 07:19:52.784993,65,54.302,32.9459,999.4739,295.373,209.745,317.531,317.7591800214872,37.319176016521624,-2.788721902069515,IERS2010 latitude +37.3192 N longitude -2.7887 E elevation 420694.2 m
2023-05-04 07:20:08.476428,66,54.4645,32.8922,999.4939,295.373,209.745,317.96,318.15993112575393,36.67750101081701,-1.8716822227031973,IERS2010 latitude +36.6775 N longitude -1.8717 E elevation 420527.3 m
2023-05-04 07:20:24.142485,67,54.1978,32.8743,999.4912,295.373,209.745,318.365,318.5736869102004,36.02882871023964,-0.9723100247782409,IERS2010 latitude +36.0288 N longitude -0.9723 E elevation 420360.0 m
2023-05-04 07:20:39.806721,68,53.9771,32.8922,999.4905,295.373,209.745,318.786,319.0021856579703,35.37254991220609,-0.08880757306372679,IERS2010 latitude +35.3725 N longitude -0.0888 E elevation 420192.5 m
2023-05-04 07:20:55.449846,69,54.0231,33.0534,999.5,295.373,209.745,319.222,319.44735348240965,34.709755768062955,0.7782673015383335,IERS2010 latitude +34.7098 N longitude 0.7783 E elevation 420025.0 m
2023-05-04 07:21:11.155521,70,54.2407,32.9996,999.5034,295.373,209.745,319.676,319.9026743830502,34.03734101209029,1.6337192688986708,IERS2010 latitude +34.0373 N longitude 1.6337 E elevation 419857.0 m
2023-05-04 07:21:26.815603,71,54.0629,32.9817,999.498,295.373,209.745,320.132,320.3629574161228,33.3598964201461,2.47247652476027,IERS2010 latitude +33.3599 N longitude 2.4725 E elevation 419689.7 m
2023-05-04 07:21:42.499388,72,53.8667,33.0176,999.4824,295.373,209.745,320.602,320.8471426961958,32.67483455820398,3.2985657575228085,IERS2010 latitude +32.6748 N longitude 3.2986 E elevation 419522.8 m
2023-05-04 07:21:58.135690,73,53.9955,32.9817,999.4939,295.373,209.745,321.086,321.3249895607191,31.985568346269527,4.108676649810201,IERS2010 latitude +31.9856 N longitude 4.1087 E elevation 419357.3 m
2023-05-04 07:22:13.804230,74,53.8943,33.0355,999.491,295.373,209.745,321.568,321.8144648223043,31.28866828312477,4.907597971116486,IERS2010 latitude +31.2887 N longitude 4.9076 E elevation 419192.4 m
2023-05-04 07:22:29.485952,75,53.9801,33.0176,999.4915,295.373,209.745,322.059,322.30149146107203,30.585526916886067,5.694359746541461,IERS2010 latitude +30.5855 N longitude 5.6944 E elevation 419028.7 m
2023-05-04 07:22:45.121267,76,54.3541,33.0355,999.5256,295.373,209.745,322.548,322.80083634600794,29.87909423583432,6.466424718041554,IERS2010 latitude +29.8791 N longitude 6.4664 E elevation 418867.0 m
2023-05-04 07:23:00.784854,77,53.9403,33.0355,999.4683,295.373,209.745,323.06,323.32249545896224,29.1657115547941,7.228486205535741,IERS2010 latitude +29.1657 N longitude 7.2285 E elevation 418706.7 m
2023-05-04 07:23:16.466209,78,53.9985,33.0534,999.4807,295.373,209.745,323.586,323.84893228924096,28.446567069911502,7.979842084825239,IERS2010 latitude +28.4466 N longitude 7.9798 E elevation 418548.3 m
2023-05-04 07:23:32.120220,79,54.1395,32.9817,999.4897,295.373,209.745,324.123,324.40515557449015,27.723769756927524,8.718939784303178,IERS2010 latitude +27.7238 N longitude 8.7189 E elevation 418392.4 m
2023-05-04 07:23:47.776493,80,54.1886,32.9638,999.4863,295.373,209.745,324.697,324.9962947867764,26.996344294157065,9.447430215855965,IERS2010 latitude +26.9963 N longitude 9.4474 E elevation 418238.9 m
2023-05-04 07:24:03.429295,81,54.3112,33.0534,999.4783,295.373,209.745,325.299,325.60709811368315,26.263617944069036,10.166556311095523,IERS2010 latitude +26.2636 N longitude 10.1666 E elevation 418087.9 m
2023-05-04 07:24:18.999057,82,54.3112,33.125,999.4919,295.373,209.745,325.92,326.23632246078137,25.531913689967645,10.870813630508803,IERS2010 latitude +25.5319 N longitude 10.8708 E elevation 417940.9 m
2023-05-04 07:24:34.516453,83,54.1426,33.125,999.5208,295.373,209.745,326.549,326.8572822789839,24.79801211067861,11.564048450844842,IERS2010 latitude +24.7980 N longitude 11.5640 E elevation 417797.3 m
2023-05-04 07:24:50.032612,84,53.9924,33.1608,999.4829,295.373,209.745,327.167,327.4777298329987,24.06029628141875,12.248366466750069,IERS2010 latitude +24.0603 N longitude 12.2484 E elevation 417657.0 m
2023-05-04 07:25:05.544991,85,54.1579,33.125,999.4619,295.373,209.745,327.801,328.13478720096475,23.31908997983258,12.92398539054918,IERS2010 latitude +23.3191 N longitude 12.9240 E elevation 417520.2 m
2023-05-04 07:25:21.070830,86,54.1058,33.2504,999.4558,295.373,209.745,328.477,328.8281811753153,22.573860416640937,13.591881667934906,IERS2010 latitude +22.5739 N longitude 13.5919 E elevation 417387.0 m
2023-05-04 07:25:36.586730,87,53.9158,33.125,999.4604,295.373,209.745,329.198,329.57769539898123,21.82536292170692,14.251853494786198,IERS2010 latitude +21.8254 N longitude 14.2519 E elevation 417257.6 m
2023-05-04 07:25:52.093279,88,53.8483,33.1787,999.4065,295.373,209.745,329.975,330.38579898534755,21.074283503631115,14.90378210450278,IERS2010 latitude +21.0743 N longitude 14.9038 E elevation 417132.4 m
2023-05-04 07:26:07.608793,89,53.9587,33.1787,999.4714,295.373,209.745,330.8,331.2162031393539,20.319908148791768,15.548753011142024,IERS2010 latitude +20.3199 N longitude 15.5488 E elevation 417011.4 m
2023-05-04 07:26:23.125853,90,53.9985,33.3041,999.4658,295.373,209.745,331.644,332.07058296489436,19.562141369378182,16.187280199676056,IERS2010 latitude +19.5621 N longitude 16.1873 E elevation 416894.8 m
2023-05-04 07:26:38.654212,91,54.0568,33.2324,999.4714,295.373,209.745,332.515,332.97399842603363,18.801439865084728,16.819402344749914,IERS2010 latitude +18.8014 N longitude 16.8194 E elevation 416782.8 m
2023-05-04 07:26:54.188632,92,53.9801,33.2504,999.45,295.373,209.745,333.45,333.9371473065592,18.037587084355128,17.44571273111525,IERS2010 latitude +18.0376 N longitude 17.4457 E elevation 416675.4 m
2023-05-04 07:27:09.699517,93,54.1487,33.2324,999.4634,295.373,209.745,334.454,334.99303137299336,17.272380497436593,18.065161810557232,IERS2010 latitude +17.2724 N longitude 18.0652 E elevation 416573.2 m
2023-05-04 07:27:25.207547,94,53.738,33.2324,999.4922,295.373,209.745,335.524,336.05031733575464,16.50477603881136,18.6790158544519,IERS2010 latitude +16.5048 N longitude 18.6790 E elevation 416476.0 m
2023-05-04 07:27:40.721127,95,53.7656,33.2683,999.4097,295.373,209.745,336.598,337.161911840154,15.734829409780742,19.287622677937044,IERS2010 latitude +15.7348 N longitude 19.2876 E elevation 416384.2 m
2023-05-04 07:27:56.254744,96,53.9464,33.1966,999.4233,295.373,209.745,337.742,338.3290562730731,14.961967304267267,19.891809362784386,IERS2010 latitude +14.9620 N longitude 19.8918 E elevation 416297.6 m
2023-05-04 07:28:11.757998,97,53.9311,33.2862,999.4399,295.373,209.745,338.953,339.5756955701946,14.188243025524077,20.490352481911454,IERS2010 latitude +14.1882 N longitude 20.4904 E elevation 416216.7 m
2023-05-04 07:28:27.274250,98,53.8453,33.2504,999.4502,295.373,209.745,340.208,340.84336672731797,13.412377347553127,21.08462179541837,IERS2010 latitude +13.4124 N longitude 21.0846 E elevation 416141.4 m
2023-05-04 07:28:42.794993,99,53.8208,33.3757,999.3958,295.373,209.745,341.512,342.20309858916926,12.634132322625545,21.67515216723096,IERS2010 latitude +12.6341 N longitude 21.6752 E elevation 416071.9 m
2023-05-04 07:28:58.324912,100,53.9035,33.3936,999.3816,295.373,209.745,342.92,343.65554002371977,11.853975026279814,22.26193615049027,IERS2010 latitude +11.8540 N longitude 22.2619 E elevation 416008.3 m
2023-05-04 07:29:13.830039,101,54.0936,33.4115,999.3682,295.373,209.745,344.418,345.1986505119549,11.073438405060996,22.84417892212528,IERS2010 latitude +11.0734 N longitude 22.8442 E elevation 415950.9 m
2023-05-04 07:29:29.357874,102,53.548,33.3399,999.3901,295.373,209.745,346.014,346.84080984221265,10.290530607830545,23.423712015561502,IERS2010 latitude +10.2905 N longitude 23.4237 E elevation 415899.5 m
2023-05-04 07:29:44.865560,103,53.7717,33.3757,999.3706,295.373,209.745,347.7,348.5479883045006,9.507442617413455,23.99925276151899,IERS2010 latitude +9.5074 N longitude 23.9993 E elevation 415854.5 m
2023-05-04 07:30:00.404448,104,53.8698,33.4294,999.3638,295.373,209.745,349.43,350.34412485808616,8.721170041122408,24.57333648203383,IERS2010 latitude +8.7212 N longitude 24.5733 E elevation 415815.7 m
2023-05-04 07:30:15.919036,105,54.02,33.4473,999.3477,295.373,209.745,351.27,352.2113628271579,7.935433459965647,25.143572682673074,IERS2010 latitude +7.9354 N longitude 25.1436 E elevation 415783.4 m
2023-05-04 07:30:31.445336,106,53.9066,33.4832,999.3352,295.373,209.745,353.186,354.18540873314936,7.147692312063868,25.712134063895757,IERS2010 latitude +7.1477 N longitude 25.7121 E elevation 415757.6 m
2023-05-04 07:30:46.963717,107,53.7411,33.4832,999.3364,295.373,209.745,355.211,356.2620214554728,6.3596807591857,26.27808728964094,IERS2010 latitude +6.3597 N longitude 26.2781 E elevation 415738.4 m
2023-05-04 07:31:02.459405,108,53.6123,33.5906,999.3147,295.373,209.745,357.323,358.38751496019995,5.570937261217922,26.842084565621356,IERS2010 latitude +5.5709 N longitude 26.8421 E elevation 415725.8 m
2023-05-04 07:31:17.935095,109,53.5234,33.5548,999.3359,295.373,209.745,359.467,0.5546462052419731,4.784705874758086,27.402133182443247,IERS2010 latitude +4.7847 N longitude 27.4021 E elevation 415719.9 m
2023-05-04 07:31:33.470946,110,53.7135,33.519,999.3113,295.373,209.745,1.656,2.7617812279225435,3.9939667032959165,27.96354141413618,IERS2010 latitude +3.9940 N longitude 27.9635 E elevation 415720.7 m
2023-05-04 07:31:49.021478,111,53.3395,33.4652,999.3218,295.373,209.745,3.862,4.952922775692148,3.2015717572176805,28.524576784727095,IERS2010 latitude +3.2016 N longitude 28.5246 E elevation 415728.3 m
2023-05-04 07:32:04.534889,112,53.6399,33.5369,999.3533,295.373,209.745,6.072,7.207641645246935,2.410877122228651,29.083173592410677,IERS2010 latitude +2.4109 N longitude 29.0832 E elevation 415742.7 m
2023-05-04 07:32:20.059545,113,53.7349,33.5011,999.3262,295.373,209.745,8.389,9.574736763442294,1.6195295698679035,29.64130436497929,IERS2010 latitude +1.6195 N longitude 29.6413 E elevation 415763.8 m
2023-05-04 07:32:35.602460,114,53.4805,33.5727,999.3235,295.372,209.745,10.767,11.942000928819613,0.8268523722423692,30.199749284798855,IERS2010 latitude +0.8269 N longitude 30.1997 E elevation 415791.9 m
2023-05-04 07:32:51.139738,115,53.7686,33.6622,999.3823,295.373,209.745,13.136,14.336857350896489,0.03417154257841246,30.75787804038035,IERS2010 latitude +0.0342 N longitude 30.7579 E elevation 415826.7 m
2023-05-04 07:33:06.658478,116,53.505,33.6443,999.3494,295.373,209.745,15.567,16.811962519305492,-0.7573772822902407,31.315195787487877,IERS2010 latitude -0.7574 N longitude 31.3152 E elevation 415868.4 m
2023-05-04 07:33:22.181488,117,53.6828,33.6622,999.3521,295.373,209.745,18.065,19.318846850375273,-1.5490303015475573,31.872876704017024,IERS2010 latitude -1.5490 N longitude 31.8729 E elevation 415916.8 m
2023-05-04 07:33:37.700580,118,53.692,33.6981,999.3506,295.373,209.745,20.573,21.816829737409233,-2.3402869535521895,32.430872052431376,IERS2010 latitude -2.3403 N longitude 32.4309 E elevation 415972.0 m
2023-05-04 07:33:53.210629,119,53.4958,33.716,999.3528,295.373,209.745,23.076,24.337997701580804,-3.1307796338929648,32.989226061592106,IERS2010 latitude -3.1308 N longitude 32.9892 E elevation 416033.9 m
2023-05-04 07:34:08.729694,120,53.4958,33.716,999.3362,295.373,209.745,25.586,26.81691753064126,-3.921296185349268,33.54880053043661,IERS2010 latitude -3.9213 N longitude 33.5488 E elevation 416102.5 m
2023-05-04 07:34:24.264645,121,53.4958,33.6801,999.2808,295.373,209.745,28.068,29.33027005085504,-4.712168041638579,34.11014048311919,IERS2010 latitude -4.7122 N longitude 34.1101 E elevation 416177.9 m
2023-05-04 07:34:39.794863,122,53.3211,33.7339,999.3247,295.373,209.745,30.584,31.828500532246416,-5.502187855621999,34.672700151969416,IERS2010 latitude -5.5022 N longitude 34.6727 E elevation 416259.8 m
2023-05-04 07:34:55.344254,123,53.4437,33.7518,999.3535,295.373,209.745,33.061,34.27659401003531,-6.292288280041596,35.23745771685941,IERS2010 latitude -6.2923 N longitude 35.2375 E elevation 416348.3 m
2023-05-04 07:35:10.895992,124,53.4069,33.7339,999.311,295.373,209.745,35.48,36.67871689961543,-7.082115825041744,35.804481240202506,IERS2010 latitude -7.0821 N longitude 35.8045 E elevation 416443.4 m
2023-05-04 07:35:26.414727,125,53.5786,33.6981,999.3225,295.372,209.745,37.864,39.03321971030223,-7.8691671558010245,36.372284533125494,IERS2010 latitude -7.8692 N longitude 36.3723 E elevation 416544.6 m
2023-05-04 07:35:41.934306,126,53.6828,33.8592,999.3298,295.373,209.745,40.211,41.37928040717489,-8.655264865184316,36.9424929156523,IERS2010 latitude -8.6553 N longitude 36.9425 E elevation 416652.1 m
2023-05-04 07:35:57.460954,127,53.4069,33.8234,999.344,295.373,209.745,42.539,43.686572950318556,-9.440419276165205,37.51543884334044,IERS2010 latitude -9.4404 N longitude 37.5154 E elevation 416765.8 m
2023-05-04 07:36:12.987195,128,53.364,33.7876,999.3296,295.372,209.745,44.823,45.97764379418344,-10.224728919222958,38.091525891204775,IERS2010 latitude -10.2247 N longitude 38.0915 E elevation 416885.7 m
2023-05-04 07:36:28.540271,129,53.6368,33.8413,999.3472,295.373,209.745,47.128,48.271351091067956,-11.008878985858729,38.67160217872118,IERS2010 latitude -11.0089 N longitude 38.6716 E elevation 417011.6 m
2023-05-04 07:36:44.099205,130,53.5357,33.7876,999.3284,295.373,209.745,49.401,50.51523898814639,-11.791690819592171,39.25514503253197,IERS2010 latitude -11.7917 N longitude 39.2551 E elevation 417143.5 m
2023-05-04 07:36:59.634931,131,53.4713,33.8413,999.3235,295.372,209.745,51.616,52.699277352622595,-12.572184158829915,39.8417622510816,IERS2010 latitude -12.5722 N longitude 39.8418 E elevation 417280.9 m
2023-05-04 07:37:15.171883,132,53.3947,34.0025,999.3164,295.372,209.745,53.779,54.848290507034974,-13.350922109355189,40.432218817662665,IERS2010 latitude -13.3509 N longitude 40.4322 E elevation 417423.9 m
2023-05-04 07:37:30.728355,133,53.3364,33.9667,999.3093,295.372,209.745,55.897,56.930606864202176,-14.128616637815503,41.02741740953726,IERS2010 latitude -14.1286 N longitude 41.0274 E elevation 417572.5 m
2023-05-04 07:37:46.274047,134,53.2384,33.9488,999.3086,295.372,209.745,57.96,58.97039846359688,-14.90428764910183,41.6269777733381,IERS2010 latitude -14.9043 N longitude 41.6270 E elevation 417726.3 m
2023-05-04 07:38:01.824910,135,53.4652,33.9846,999.3096,295.372,209.745,59.981,60.97968985325289,-15.67782369349873,42.231181478684704,IERS2010 latitude -15.6778 N longitude 42.2312 E elevation 417885.2 m
2023-05-04 07:38:17.301221,136,53.2445,34.0383,999.333,295.372,209.745,61.978,62.97193992092972,-16.4457206257212,42.83762205656613,IERS2010 latitude -16.4457 N longitude 42.8376 E elevation 418048.4 m
2023-05-04 07:38:32.853383,137,53.3702,33.8413,999.3435,295.372,209.745,63.956,64.92824270300477,-17.215154163757447,43.452355335186816,IERS2010 latitude -17.2152 N longitude 43.4524 E elevation 418217.1 m
2023-05-04 07:38:48.394229,138,53.3978,33.9846,999.3279,295.372,209.745,65.884,66.82189215982329,-17.98183503933401,44.07239625137103,IERS2010 latitude -17.9818 N longitude 44.0724 E elevation 418390.4 m
2023-05-04 07:39:03.915482,139,53.3058,33.9129,999.2925,295.372,209.745,67.735,68.6292216859112,-18.74478588971473,44.69733409290656,IERS2010 latitude -18.7448 N longitude 44.6973 E elevation 418567.8 m
2023-05-04 07:39:19.460866,140,53.2598,33.9488,999.323,295.372,209.745,69.523,70.40563777581562,-19.506320022162793,45.32947732704534,IERS2010 latitude -19.5063 N longitude 45.3295 E elevation 418749.8 m
2023-05-04 07:39:35.020020,141,53.3579,34.0383,999.3252,295.372,209.745,71.278,72.13924224000242,-20.265724006171205,45.96868965886646,IERS2010 latitude -20.2657 N longitude 45.9687 E elevation 418936.0 m
2023-05-04 07:39:50.619542,142,53.1035,34.0383,999.3364,295.373,209.745,72.993,73.83807421112466,-21.02395485151937,46.616257209092936,IERS2010 latitude -21.0240 N longitude 46.6163 E elevation 419126.4 m
2023-05-04 07:40:06.166955,143,53.2322,34.0383,999.3389,295.372,209.745,74.67,75.49715448127745,-21.776950389874784,47.269151591279986,IERS2010 latitude -21.7770 N longitude 47.2692 E elevation 419320.0 m
2023-05-04 07:40:21.715856,144,53.2966,34.1278,999.3381,295.373,209.745,76.311,77.12386648495352,-22.526572171142604,47.92940126473903,IERS2010 latitude -22.5266 N longitude 47.9294 E elevation 419517.0 m
2023-05-04 07:40:37.276987,145,52.9901,34.092,999.4165,295.372,209.745,77.941,78.74719071480129,-23.27342809160005,48.598023495014736,IERS2010 latitude -23.2734 N longitude 48.5980 E elevation 419717.4 m
2023-05-04 07:40:52.812832,146,53.2568,34.092,999.4004,295.373,209.745,79.533,80.30742448728564,-24.01551444809212,49.27369516870509,IERS2010 latitude -24.0155 N longitude 49.2737 E elevation 419920.5 m
2023-05-04 07:41:08.352276,147,53.2659,34.1099,999.4336,295.373,209.745,81.06,81.79754636793982,-24.754049991831906,49.95799874316049,IERS2010 latitude -24.7540 N longitude 49.9580 E elevation 420126.4 m
2023-05-04 07:41:23.889155,148,53.502,34.1457,999.384,295.372,209.745,82.529,83.25353779331144,-25.48840544119255,50.65085849836115,IERS2010 latitude -25.4884 N longitude 50.6509 E elevation 420334.7 m
2023-05-04 07:41:39.426437,149,52.9594,34.0383,999.364,295.373,209.745,83.956,84.64182838362989,-26.218915567095962,51.35311383254477,IERS2010 latitude -26.2189 N longitude 51.3531 E elevation 420545.5 m
2023-05-04 07:41:54.996689,150,53.2629,34.1816,999.3633,295.373,209.745,85.317,85.98234180070409,-26.946915880621148,52.066644927911746,IERS2010 latitude -26.9469 N longitude 52.0666 E elevation 420758.8 m
2023-05-04 07:42:10.536504,151,53.2598,34.1099,999.4092,295.373,209.745,86.634,87.27205227073175,-27.668705849798375,52.78838215409618,IERS2010 latitude -27.6687 N longitude 52.7884 E elevation 420973.5 m
2023-05-04 07:42:26.075775,152,53.174,34.1816,999.3848,295.373,209.745,87.895,88.50763349158706,-28.38619632307186,53.520768285323044,IERS2010 latitude -28.3862 N longitude 53.5208 E elevation 421189.9 m
2023-05-04 07:42:41.626415,153,53.1341,34.1457,999.3794,295.373,209.745,89.107,89.69603176565592,-29.099224448043,54.26425171452339,IERS2010 latitude -29.0992 N longitude 54.2643 E elevation 421407.7 m
2023-05-04 07:42:57.149997,154,53.1188,34.092,999.3767,295.373,209.745,90.284,90.868891359363,-29.806007802032394,55.017555048252596,IERS2010 latitude -29.8060 N longitude 55.0176 E elevation 421626.4 m
2023-05-04 07:43:12.686833,155,52.9625,34.0562,999.394,295.372,209.745,91.445,92.01248359247657,-30.508137664610683,55.78298092468238,IERS2010 latitude -30.5081 N longitude 55.7830 E elevation 421846.1 m
2023-05-04 07:43:28.235879,156,53.0974,34.2174,999.3867,295.372,209.745,92.571,93.11988948336742,-31.205420278431472,56.5610114370794,IERS2010 latitude -31.2054 N longitude 56.5610 E elevation 422066.6 m
2023-05-04 07:43:43.749328,157,53.1035,34.1816,999.3677,295.373,209.745,93.657,94.18393733340703,-31.895344651533804,57.34947056606122,IERS2010 latitude -31.8953 N longitude 57.3495 E elevation 422287.0 m
2023-05-04 07:43:59.301030,158,53.1219,34.1816,999.3911,295.373,209.745,94.706,95.23841608841944,-32.58108531079974,58.15267916510797,IERS2010 latitude -32.5811 N longitude 58.1527 E elevation 422508.2 m
2023-05-04 07:44:14.930229,159,53.1219,34.289,999.3672,295.373,209.745,95.755,96.2582657843399,-33.264026559469904,58.97320003230591,IERS2010 latitude -33.2640 N longitude 58.9732 E elevation 422730.3 m
2023-05-04 07:44:30.488656,160,53.0667,34.1278,999.3911,295.372,209.745,96.75,97.23175898636347,-33.93743616354016,59.80369784179138,IERS2010 latitude -33.9374 N longitude 59.8037 E elevation 422951.1 m
2023-05-04 07:44:46.013909,161,53.0667,34.1816,999.3899,295.373,209.745,97.699,98.14679942947008,-34.6027198449907,60.64644684897313,IERS2010 latitude -34.6027 N longitude 60.6464 E elevation 423170.8 m
2023-05-04 07:45:01.574107,162,52.938,34.3069,999.4031,295.372,209.745,98.585,99.01247809544502,-35.26240404818639,61.50542451859632,IERS2010 latitude -35.2624 N longitude 61.5054 E elevation 423390.1 m
2023-05-04 07:45:17.084776,163,53.1587,34.3427,999.3894,295.372,209.745,99.438,99.86131351492669,-35.913055443118104,62.37693657851347,IERS2010 latitude -35.9131 N longitude 62.3769 E elevation 423607.7 m
2023-05-04 07:45:32.605660,164,53.1771,34.2174,999.3557,295.373,209.745,100.278,100.68279402678246,-36.55649620416783,63.26416337889595,IERS2010 latitude -36.5565 N longitude 63.2642 E elevation 423824.2 m
2023-05-04 07:45:48.139044,165,52.8644,34.1816,999.3723,295.373,209.745,101.086,101.48518415990804,-37.19263196934518,64.16787232425024,IERS2010 latitude -37.1926 N longitude 64.1679 E elevation 424039.2 m
2023-05-04 07:46:03.667406,166,52.8705,34.2353,999.4292,295.373,209.745,101.883,102.27525263177094,-37.820280325979354,65.08726639446557,IERS2010 latitude -37.8203 N longitude 65.0873 E elevation 424252.2 m
2023-05-04 07:46:19.184765,167,52.9747,34.3606,999.3845,295.372,209.745,102.659,103.03351974285823,-38.43939221804556,66.02314119782845,IERS2010 latitude -38.4394 N longitude 66.0231 E elevation 424463.2 m
2023-05-04 07:46:34.721608,168,53.0698,34.289,999.3933,295.373,209.745,103.409,103.77242326764856,-39.05023184718265,66.97684958044938,IERS2010 latitude -39.0502 N longitude 66.9768 E elevation 424672.0 m
2023-05-04 07:46:50.254631,169,52.9042,34.2174,999.3989,295.372,209.745,104.136,104.49377320627194,-39.65201227331753,67.94815575989665,IERS2010 latitude -39.6520 N longitude 67.9482 E elevation 424878.3 m
2023-05-04 07:47:05.790118,170,52.846,34.3069,999.3794,295.373,209.745,104.847,105.19396321884663,-40.24433520768507,68.93739936884674,IERS2010 latitude -40.2443 N longitude 68.9374 E elevation 425081.9 m
2023-05-04 07:47:21.454316,171,52.7111,34.2711,999.3726,295.373,209.745,105.543,105.88862760838278,-40.83160469924749,69.95337396930458,IERS2010 latitude -40.8316 N longitude 69.9534 E elevation 425284.0 m
2023-05-04 07:47:37.128498,172,52.941,34.1816,999.3611,295.373,209.745,106.232,106.57252078959782,-41.40886728928756,70.98903716685835,IERS2010 latitude -41.4089 N longitude 70.9890 E elevation 425483.1 m
2023-05-04 07:47:52.788728,173,52.987,34.2711,999.355,295.372,209.745,106.913,107.2528964233903,-41.97471507251886,72.04291394281405,IERS2010 latitude -41.9747 N longitude 72.0429 E elevation 425678.4 m
2023-05-04 07:48:08.451486,174,52.8705,34.3606,999.3826,295.373,209.745,107.583,107.90189416813574,-42.52976318048406,73.117225636454,IERS2010 latitude -42.5298 N longitude 73.1172 E elevation 425870.0 m
2023-05-04 07:48:24.118159,175,52.9042,34.1278,999.3303,295.372,209.745,108.217,108.52346870336358,-43.073091475491005,74.21134434063617,IERS2010 latitude -43.0731 N longitude 74.2113 E elevation 426057.7 m
2023-05-04 07:48:39.800916,176,52.8123,34.289,999.3057,295.373,209.745,108.836,109.14190818176239,-43.60524519772676,75.32760935942444,IERS2010 latitude -43.6052 N longitude 75.3276 E elevation 426241.4 m
2023-05-04 07:48:55.437116,177,52.9012,34.3248,999.3413,295.373,209.745,109.449,109.75617441457831,-44.12326717849557,76.46087644062308,IERS2010 latitude -44.1233 N longitude 76.4609 E elevation 426420.2 m
2023-05-04 07:49:11.104680,178,52.6284,34.3606,999.3337,295.373,209.745,110.058,110.35638411808235,-44.6293069208016,77.61693267910867,IERS2010 latitude -44.6293 N longitude 77.6169 E elevation 426594.7 m
2023-05-04 07:49:26.757825,179,52.8859,34.2353,999.3076,295.373,209.745,110.651,110.93585053707706,-45.121708610273735,78.79328875050939,IERS2010 latitude -45.1217 N longitude 78.7933 E elevation 426764.2 m
2023-05-04 07:49:42.409052,180,52.7632,34.2353,999.3489,295.373,209.745,111.221,111.5072709932295,-45.600297156353264,79.99069898737768,IERS2010 latitude -45.6003 N longitude 79.9907 E elevation 426928.8 m
2023-05-04 07:49:58.041690,181,52.6529,34.289,999.3425,295.373,209.745,111.794,112.07606865674065,-46.06424087309303,81.20824316347816,IERS2010 latitude -46.0642 N longitude 81.2082 E elevation 427088.0 m
2023-05-04 07:50:13.672127,182,52.8246,34.3069,999.3677,295.373,209.745,112.358,112.6376263197316,-46.51334873192176,82.44656383557597,IERS2010 latitude -46.5133 N longitude 82.4466 E elevation 427241.8 m
2023-05-04 07:50:29.240623,183,52.7755,34.2532,999.3435,295.373,209.745,112.917,113.19492194468044,-46.945648774498395,83.70108430506552,IERS2010 latitude -46.9456 N longitude 83.7011 E elevation 427389.5 m
2023-05-04 07:50:44.777363,184,52.8399,34.3785,999.3496,295.372,209.745,113.478,113.76373326856994,-47.36164596147269,84.97395075238983,IERS2010 latitude -47.3616 N longitude 84.9740 E elevation 427531.2 m
2023-05-04 07:51:00.343465,185,52.7632,34.3965,999.3354,295.373,209.745,114.052,114.34205904597324,-47.76251709277209,86.27002155741306,IERS2010 latitude -47.7625 N longitude 86.2700 E elevation 427667.4 m
2023-05-04 07:51:15.904749,186,52.8859,34.2711,999.3516,295.372,209.745,114.632,114.92286418204529,-48.146878897229925,87.58627663361732,IERS2010 latitude -48.1469 N longitude 87.5863 E elevation 427797.5 m
2023-05-04 07:51:31.471616,187,52.6805,34.2711,999.3274,295.372,209.745,115.21,115.49360844946989,-48.514426862991044,88.92293477304203,IERS2010 latitude -48.5144 N longitude 88.9229 E elevation 427921.5 m
2023-05-04 07:51:47.041451,188,52.9012,34.2174,999.3413,295.373,209.745,115.775,116.05375226330264,-48.86490415902727,90.28044931049551,IERS2010 latitude -48.8649 N longitude 90.2804 E elevation 428039.4 m
2023-05-04 07:52:02.576179,189,52.6713,34.4502,999.3123,295.372,209.745,116.329,116.60005811387694,-49.197224488701714,91.65584392444951,IERS2010 latitude -49.1972 N longitude 91.6558 E elevation 428150.6 m
2023-05-04 07:52:18.154529,190,52.7939,34.3606,999.3865,295.372,209.745,116.876,117.15517490848055,-49.511361554974464,93.05014062705227,IERS2010 latitude -49.5114 N longitude 93.0501 E elevation 428255.4 m
2023-05-04 07:52:33.688497,191,53.0452,34.3069,999.3911,295.372,209.745,117.431,117.70128951375808,-49.80646021093666,94.46061103593118,IERS2010 latitude -49.8065 N longitude 94.4606 E elevation 428353.4 m
2023-05-04 07:52:49.243122,192,52.9717,34.3606,999.4141,295.372,209.745,117.968,118.23471362755775,-50.082900682544974,95.89031516096944,IERS2010 latitude -50.0829 N longitude 95.8903 E elevation 428444.7 m
2023-05-04 07:53:04.766403,193,52.797,34.3427,999.3835,295.372,209.745,118.501,118.76625260914648,-50.339405826620535,97.33378084567757,IERS2010 latitude -50.3394 N longitude 97.3338 E elevation 428528.9 m
2023-05-04 07:53:20.276060,194,53.082,34.289,999.3965,295.372,209.745,119.033,119.3005509871599,-50.57596546970873,98.79166178487391,IERS2010 latitude -50.5760 N longitude 98.7917 E elevation 428606.2 m
2023-05-04 07:53:35.783219,195,52.8736,34.3427,999.3821,295.372,209.745,119.57,119.83476740290327,-50.79240442357463,100.26389499570928,IERS2010 latitude -50.7924 N longitude 100.2639 E elevation 428676.4 m
2023-05-04 07:53:51.285139,196,52.7908,34.3965,999.3728,295.373,209.745,120.102,120.36943461113187,-50.98836599355855,101.74914810336132,IERS2010 latitude -50.9884 N longitude 101.7491 E elevation 428739.5 m
2023-05-04 07:54:06.827584,197,52.4629,34.3427,999.4001,295.372,209.745,120.633,120.89139766750425,-51.16401692121522,103.25041649202876,IERS2010 latitude -51.1640 N longitude 103.2504 E elevation 428795.6 m
2023-05-04 07:54:22.329049,198,52.7602,34.3427,999.3823,295.372,209.745,121.155,121.42189846033914,-51.318223138901566,104.75920040350816,IERS2010 latitude -51.3182 N longitude 104.7592 E elevation 428844.2 m
2023-05-04 07:54:37.863402,199,52.6744,34.289,999.3989,295.372,209.745,121.688,121.95321887587443,-51.451444104361265,106.28109317132811,IERS2010 latitude -51.4514 N longitude 106.2811 E elevation 428885.7 m
2023-05-04 07:54:53.402476,200,52.6897,34.3427,999.3921,295.372,209.745,122.217,122.48253121579374,-51.56315621284284,107.81231763828275,IERS2010 latitude -51.5632 N longitude 107.8123 E elevation 428919.7 m
2023-05-04 07:55:08.909063,201,52.6927,34.2711,999.3728,295.372,209.745,122.747,123.01180257457803,-51.65290638771384,109.34701997571713,IERS2010 latitude -51.6529 N longitude 109.3470 E elevation 428946.3 m
2023-05-04 07:55:24.445963,202,52.7357,34.4144,999.4128,295.372,209.745,123.275,123.52991340425851,-51.720920826934794,110.88985899567332,IERS2010 latitude -51.7209 N longitude 110.8899 E elevation 428965.5 m
2023-05-04 07:55:39.987585,203,52.5058,34.3965,999.3733,295.372,209.745,123.788,124.04557902621613,-51.766941749268376,112.438036989585,IERS2010 latitude -51.7669 N longitude 112.4380 E elevation 428977.2 m
2023-05-04 07:55:55.510307,204,52.613,34.4323,999.3376,295.372,209.745,124.308,124.56621702588953,-51.790803060283004,113.98637234038083,IERS2010 latitude -51.7908 N longitude 113.9864 E elevation 428981.4 m
2023-05-04 07:56:11.038336,205,52.3341,34.486,999.3533,295.372,209.745,124.825,125.08076249682327,-51.79254464331538,115.53629017023334,IERS2010 latitude -51.7925 N longitude 115.5363 E elevation 428978.1 m
2023-05-04 07:56:26.563679,206,52.8705,34.3785,999.3525,295.372,209.745,125.34,125.59958366617744,-51.77216618085949,117.08466450042604,IERS2010 latitude -51.7722 N longitude 117.0847 E elevation 428967.3 m
2023-05-04 07:56:42.207893,207,52.5763,34.4323,999.3674,295.372,209.745,125.866,126.1298385722022,-51.72926928672288,118.6435314715019,IERS2010 latitude -51.7293 N longitude 118.6435 E elevation 428948.9 m
2023-05-04 07:56:57.848040,208,52.5272,34.3965,999.3735,295.372,209.745,126.396,126.66296215767838,-51.664045557698564,120.19773486834247,IERS2010 latitude -51.6640 N longitude 120.1977 E elevation 428922.8 m
2023-05-04 07:57:13.501176,209,52.6039,34.4502,999.2869,295.372,209.745,126.933,127.2038448380517,-51.57653770495366,121.74739365563788,IERS2010 latitude -51.5765 N longitude 121.7474 E elevation 428889.2 m
2023-05-04 07:57:29.150769,210,52.7387,34.4502,999.2754,295.372,209.745,127.475,127.74539687696367,-51.466891691411156,123.29058124541551,IERS2010 latitude -51.4669 N longitude 123.2906 E elevation 428848.1 m
2023-05-04 07:57:44.805213,211,52.5395,34.4144,999.3228,295.372,209.745,128.016,128.28744068949587,-51.33532005687205,124.82534661754647,IERS2010 latitude -51.3353 N longitude 124.8253 E elevation 428799.4 m
2023-05-04 07:58:00.465641,212,52.6314,34.4144,999.3154,295.372,209.745,128.56,128.83376020044852,-51.18202071366174,126.35051411777373,IERS2010 latitude -51.1820 N longitude 126.3505 E elevation 428743.4 m
2023-05-04 07:58:16.108933,213,52.8491,34.4144,999.3145,295.372,209.745,129.108,129.3833445418244,-51.00743568434765,127.86313927665147,IERS2010 latitude -51.0074 N longitude 127.8631 E elevation 428679.9 m
2023-05-04 07:58:31.776809,214,52.5609,34.4502,999.314,295.372,209.745,129.661,129.9400869214505,-50.81134953945547,129.36603401165496,IERS2010 latitude -50.8113 N longitude 129.3660 E elevation 428609.1 m
2023-05-04 07:58:47.432093,215,52.659,34.486,999.3101,295.372,209.745,130.22,130.5005585843634,-50.59462536584588,130.85362112453157,IERS2010 latitude -50.5946 N longitude 130.8536 E elevation 428531.1 m
2023-05-04 07:59:03.092091,216,52.6529,34.4144,999.3079,295.372,209.745,130.781,131.06149470013986,-50.35733587090548,132.32683343105256,IERS2010 latitude -50.3573 N longitude 132.3268 E elevation 428446.0 m
2023-05-04 07:59:18.758883,217,52.6376,34.486,999.3354,295.372,209.745,131.342,131.61969874024834,-50.099873848378415,133.78440074791015,IERS2010 latitude -50.0999 N longitude 133.7844 E elevation 428353.7 m
2023-05-04 07:59:34.434072,218,52.5027,34.4144,999.3403,295.372,209.745,131.9,132.18066217678148,-49.822361984060215,135.2266727881404,IERS2010 latitude -49.8224 N longitude 135.2267 E elevation 428254.4 m
2023-05-04 07:59:50.118525,219,52.5334,34.4681,999.3306,295.372,209.745,132.461,132.74122946234277,-49.52544952962011,136.65136243373846,IERS2010 latitude -49.5254 N longitude 136.6514 E elevation 428148.3 m
2023-05-04 08:00:05.805270,220,52.7418,34.4502,999.3188,295.372,209.745,133.021,133.30369554049332,-49.20937795223575,138.05849280992118,IERS2010 latitude -49.2094 N longitude 138.0585 E elevation 428035.3 m
2023-05-04 08:00:21.482351,221,52.7019,34.486,999.3186,295.372,209.745,133.589,133.8757238834819,-48.8751602932932,139.44493431331486,IERS2010 latitude -48.8752 N longitude 139.4449 E elevation 427915.9 m
2023-05-04 08:00:37.160467,222,52.5334,34.4502,999.3318,295.372,209.745,134.163,134.4488313963593,-48.52269281215887,140.8125053242097,IERS2010 latitude -48.5227 N longitude 140.8125 E elevation 427789.9 m
2023-05-04 08:00:52.826114,223,52.7663,34.4681,999.3064,295.372,209.745,134.732,135.01218539910198,-48.153052206350836,142.15841038627462,IERS2010 latitude -48.1531 N longitude 142.1584 E elevation 427657.7 m
2023-05-04 08:01:08.504672,224,52.4383,34.4502,999.3123,295.372,209.745,135.299,135.58633110073325,-47.76596138184575,143.4849966235478,IERS2010 latitude -47.7660 N longitude 143.4850 E elevation 427519.2 m
2023-05-04 08:01:24.196300,225,52.6345,34.5039,999.3596,295.372,209.745,135.877,136.16581801029545,-47.36194662112133,144.79158460385545,IERS2010 latitude -47.3619 N longitude 144.7916 E elevation 427374.6 m
2023-05-04 08:01:39.891520,226,52.7908,34.4144,999.3591,295.372,209.745,136.459,136.75471692053395,-46.9416104594142,146.0774266504097,IERS2010 latitude -46.9416 N longitude 146.0774 E elevation 427224.0 m
2023-05-04 08:01:55.584712,227,52.7173,34.3785,999.3535,295.372,209.745,137.047,137.33634850949556,-46.50562210733963,147.34176460421628,IERS2010 latitude -46.5056 N longitude 147.3418 E elevation 427067.8 m
2023-05-04 08:02:11.279717,228,52.5211,34.4681,999.3892,295.372,209.745,137.628,137.92097172131363,-46.054343296562735,148.58485032251565,IERS2010 latitude -46.0543 N longitude 148.5849 E elevation 426906.0 m
2023-05-04 08:02:26.979677,229,52.656,34.3606,999.408,295.372,209.745,138.215,138.50829968804302,-45.58816056902453,149.80686721384228,IERS2010 latitude -45.5882 N longitude 149.8069 E elevation 426738.9 m
2023-05-04 08:02:42.691998,230,52.515,34.3069,999.407,295.372,209.745,138.801,139.09348297537304,-45.10728900328505,151.008429697021,IERS2010 latitude -45.1073 N longitude 151.0084 E elevation 426566.4 m
2023-05-04 08:02:58.368213,231,52.5793,34.4681,999.415,295.372,209.745,139.385,139.67380316801402,-44.61370189822594,152.1859911303156,IERS2010 latitude -44.6137 N longitude 152.1860 E elevation 426389.4 m
2023-05-04 08:03:14.075571,232,52.3372,34.289,999.405,295.372,209.745,139.963,140.2504487188815,-44.10578684242404,153.34466908445125,IERS2010 latitude -44.1058 N longitude 153.3447 E elevation 426207.3 m
2023-05-04 08:03:29.768579,233,52.5272,34.3785,999.4058,295.372,209.745,140.558,140.86352649878185,-43.585539367139376,154.48107256247633,IERS2010 latitude -43.5855 N longitude 154.4811 E elevation 426020.8 m
2023-05-04 08:03:45.454823,234,52.6161,34.3606,999.4451,295.372,209.745,141.17,141.4759212597652,-43.05291766811728,155.59659042488306,IERS2010 latitude -43.0529 N longitude 155.5966 E elevation 425830.0 m
2023-05-04 08:04:01.148618,235,52.4966,34.5755,999.4648,295.372,209.745,141.779,142.07889035969393,-42.508020762315944,156.69217475797348,IERS2010 latitude -42.5080 N longitude 156.6922 E elevation 425635.0 m
2023-05-04 08:04:16.751506,236,52.4506,34.3069,999.4207,295.372,209.745,142.386,142.69172225278413,-41.95461023277673,157.76174610795556,IERS2010 latitude -41.9546 N longitude 157.7617 E elevation 425437.2 m
2023-05-04 08:04:32.436216,237,52.4107,34.3427,999.4414,295.372,209.745,142.999,143.30667150451708,-41.38730773215506,158.81686461897397,IERS2010 latitude -41.3873 N longitude 158.8169 E elevation 425234.8 m
2023-05-04 08:04:48.127412,238,52.6222,34.3785,999.4578,295.372,209.745,143.618,143.9300492096858,-40.8091201959935,159.85273400709784,IERS2010 latitude -40.8091 N longitude 159.8527 E elevation 425028.9 m
2023-05-04 08:05:03.806229,239,52.4935,34.3069,999.446,295.372,209.745,144.242,144.5520881977772,-40.22070875617091,160.86925814241155,IERS2010 latitude -40.2207 N longitude 160.8693 E elevation 424819.8 m
2023-05-04 08:05:19.492788,240,52.564,34.3248,999.4465,295.372,209.745,144.865,145.17843020504571,-39.622152945665626,161.8673591767663,IERS2010 latitude -39.6222 N longitude 161.8674 E elevation 424607.7 m
2023-05-04 08:05:35.184151,241,51.482,34.3965,999.4209,295.372,209.745,145.493,145.80697153322697,-39.01376846793669,162.84751311147963,IERS2010 latitude -39.0138 N longitude 162.8475 E elevation 424392.8 m
2023-05-04 08:05:50.868137,242,52.4904,34.3785,999.4451,295.372,209.745,146.122,146.4344473518977,-38.39639301437343,163.8093827445601,IERS2010 latitude -38.3964 N longitude 163.8094 E elevation 424175.6 m
2023-05-04 08:06:06.553275,243,52.3065,34.2711,999.4023,295.372,209.745,146.748,147.06189584981175,-37.77021809381701,164.75367937646428,IERS2010 latitude -37.7702 N longitude 164.7537 E elevation 423956.1 m
2023-05-04 08:06:22.227537,244,52.4414,34.3606,999.4316,295.372,209.745,147.376,147.691762234692,-37.135580344007224,165.68086353527045,IERS2010 latitude -37.1356 N longitude 165.6809 E elevation 423734.7 m
2023-05-04 08:06:37.909562,245,52.5977,34.3427,999.4336,295.372,209.745,148.006,148.31819986460886,-36.49253010870994,166.59178329978457,IERS2010 latitude -36.4925 N longitude 166.5918 E elevation 423511.4 m
2023-05-04 08:06:53.594736,246,52.3954,34.2353,999.4055,295.372,209.745,148.628,148.93487032401265,-35.841420407253246,167.48681901534277,IERS2010 latitude -35.8414 N longitude 167.4868 E elevation 423286.7 m
2023-05-04 08:07:09.276030,247,52.5824,34.3248,999.447,295.372,209.745,149.246,149.5579884819929,-35.183005446908865,168.36581894248596,IERS2010 latitude -35.1830 N longitude 168.3658 E elevation 423060.8 m
2023-05-04 08:07:24.979342,248,52.6835,34.3965,999.4456,295.372,209.745,149.875,150.19311411253406,-34.51615316956063,169.23109894307777,IERS2010 latitude -34.5162 N longitude 169.2311 E elevation 422833.5 m
2023-05-04 08:07:40.680541,249,52.8,34.2353,999.4341,295.372,209.745,150.514,150.8322695546855,-33.842161481779556,170.08173512662145,IERS2010 latitude -33.8422 N longitude 170.0817 E elevation 422605.5 m
2023-05-04 08:07:56.364672,250,52.4445,34.3248,999.4553,295.372,209.745,151.15,151.46590620398757,-33.16227888778017,170.91699398928773,IERS2010 latitude -33.1623 N longitude 170.9170 E elevation 422377.3 m
2023-05-04 08:08:12.066890,251,52.6406,34.2353,999.4688,295.372,209.745,151.78,152.09123734325894,-32.475111127612465,171.73937083082353,IERS2010 latitude -32.4751 N longitude 171.7394 E elevation 422148.7 m
2023-05-04 08:08:27.761302,252,52.6222,34.1995,999.4614,295.372,209.745,152.406,152.72211459613632,-31.782213320266994,172.54774457197504,IERS2010 latitude -31.7822 N longitude 172.5477 E elevation 421920.2 m
2023-05-04 08:08:43.456220,253,52.5579,34.3069,999.4844,295.372,209.745,153.043,153.36725328400072,-31.08294106460552,173.34360380841198,IERS2010 latitude -31.0829 N longitude 173.3436 E elevation 421692.0 m
2023-05-04 08:08:59.137981,254,52.7234,34.2711,999.489,295.372,209.745,153.692,154.01912653838673,-30.378855114737117,174.12590216538857,IERS2010 latitude -30.3789 N longitude 174.1259 E elevation 421464.6 m
2023-05-04 08:09:14.848927,255,52.5763,34.2174,999.4771,295.372,209.745,154.349,154.67464711378955,-29.667748139861377,174.89775685905641,IERS2010 latitude -29.6677 N longitude 174.8978 E elevation 421237.5 m
2023-05-04 08:09:30.540637,256,52.4751,34.1457,999.4922,295.372,209.745,155.003,155.33552255750163,-28.952198624201955,175.6570097129263,IERS2010 latitude -28.9522 N longitude 175.6570 E elevation 421011.8 m
2023-05-04 08:09:46.229930,257,52.4015,34.1637,999.4834,295.372,209.745,155.668,156.00022290714892,-28.23151662707984,176.40506709485467,IERS2010 latitude -28.2315 N longitude 176.4051 E elevation 420787.4 m
2023-05-04 08:10:01.911894,258,52.705,34.1995,999.5115,295.372,209.745,156.331,156.66067487913247,-27.50565537375783,177.14259079790276,IERS2010 latitude -27.5057 N longitude 177.1426 E elevation 420564.5 m
2023-05-04 08:10:17.578316,259,52.6621,34.1099,999.5291,295.372,209.745,156.989,157.31424202043266,-26.777525381583803,177.86729443671516,IERS2010 latitude -26.7775 N longitude 177.8673 E elevation 420344.1 m
2023-05-04 08:10:33.272770,260,52.5487,34.2174,999.5247,295.372,209.745,157.64,157.9655825200634,-26.04280447559896,178.58407505983652,IERS2010 latitude -26.0428 N longitude 178.5841 E elevation 420125.1 m
2023-05-04 08:10:48.967656,261,52.5916,34.1995,999.4883,295.372,209.745,158.297,158.63300128500038,-25.303967632968526,179.29103008018708,IERS2010 latitude -25.3040 N longitude 179.2910 E elevation 419908.4 m
2023-05-04 08:11:04.696212,262,52.8951,34.1637,999.5217,295.372,209.745,158.969,159.3063759748936,-24.5590599775931,179.9905362752035,IERS2010 latitude -24.5591 N longitude 179.9905 E elevation 419693.8 m
2023-05-04 08:11:20.394813,263,52.5517,34.2174,999.521,295.372,209.745,159.65,159.99241383550802,-23.811841181982818,-179.32040705367976,IERS2010 latitude -23.8118 N longitude -179.3204 E elevation 419482.4 m
2023-05-04 08:11:36.088705,264,52.6253,34.1637,999.5422,295.372,209.745,160.336,160.68036414909005,-23.06129488011095,-178.64028846712242,IERS2010 latitude -23.0613 N longitude -178.6403 E elevation 419274.1 m
2023-05-04 08:11:51.785305,265,52.6406,34.0562,999.5308,295.372,209.745,161.031,161.38489816197685,-22.306672381917675,-177.96792328842403,IERS2010 latitude -22.3067 N longitude -177.9679 E elevation 419069.0 m
2023-05-04 08:12:07.482632,266,52.6437,34.1278,999.5374,295.372,209.745,161.74,162.09410402425596,-21.54879390373776,-177.30355598448986,IERS2010 latitude -21.5488 N longitude -177.3036 E elevation 418867.3 m
2023-05-04 08:12:23.186077,267,52.5855,34.1278,999.5095,295.372,209.745,162.451,162.8098395473816,-20.787563232124587,-176.6466200502713,IERS2010 latitude -20.7876 N longitude -176.6466 E elevation 418669.3 m
2023-05-04 08:12:38.888428,268,52.564,34.1099,999.4966,295.372,209.745,163.176,163.54659839277255,-20.023082857516687,-175.99674069499216,IERS2010 latitude -20.0231 N longitude -175.9967 E elevation 418475.2 m
2023-05-04 08:12:54.564899,269,52.705,34.0383,999.512,295.372,209.745,163.93,164.3155410895326,-19.256760136311293,-175.35464098157374,IERS2010 latitude -19.2568 N longitude -175.3546 E elevation 418285.5 m
2023-05-04 08:13:10.273894,270,52.515,34.092,999.5034,295.372,209.745,164.704,165.09076756032903,-18.486411349971213,-174.71804910077202,IERS2010 latitude -18.4864 N longitude -174.7180 E elevation 418099.8 m
2023-05-04 08:13:25.966157,271,52.7571,34.0741,999.5376,295.372,209.745,165.471,165.84230693508385,-17.71384177846686,-174.08803733488045,IERS2010 latitude -17.7138 N longitude -174.0880 E elevation 417918.8 m
2023-05-04 08:13:41.668425,272,52.8521,34.0562,999.5068,295.372,209.745,166.216,166.58407913932558,-16.93858837635158,-173.46380066284192,IERS2010 latitude -16.9386 N longitude -173.4638 E elevation 417742.4 m
2023-05-04 08:13:57.369175,273,52.6744,33.9846,999.4963,295.372,209.745,166.956,167.3259469662157,-16.160734428442048,-172.84499872389273,IERS2010 latitude -16.1607 N longitude -172.8450 E elevation 417570.8 m
2023-05-04 08:14:13.058775,274,52.7786,34.0383,999.5061,295.372,209.745,167.7,168.0766530578918,-15.38133270824184,-172.23205862221715,IERS2010 latitude -15.3813 N longitude -172.2321 E elevation 417404.5 m
2023-05-04 08:14:28.760384,275,52.8246,34.1637,999.4946,295.372,209.745,168.457,168.84631975470384,-14.599104810412557,-171.6235800276616,IERS2010 latitude -14.5991 N longitude -171.6236 E elevation 417243.4 m
2023-05-04 08:14:44.459292,276,52.7694,33.9667,999.4724,295.372,209.745,169.232,169.61625965908271,-13.815348585460994,-171.0201891578941,IERS2010 latitude -13.8153 N longitude -171.0202 E elevation 417087.7 m
2023-05-04 08:15:00.156039,277,52.7786,34.0025,999.4622,295.372,209.745,170.005,170.3957071867862,-13.029432166682136,-170.42101861297027,IERS2010 latitude -13.0294 N longitude -170.4210 E elevation 416937.6 m
2023-05-04 08:15:15.854181,278,52.7694,34.0204,999.4968,295.372,209.745,170.796,171.20195637679288,-12.242035469629222,-169.82621567559218,IERS2010 latitude -12.2420 N longitude -169.8262 E elevation 416793.2 m
2023-05-04 08:15:31.537586,279,52.7234,33.9846,999.4875,295.372,209.745,171.618,172.03497990834597,-11.453332000836241,-169.23554108032442,IERS2010 latitude -11.4533 N longitude -169.2355 E elevation 416654.9 m
2023-05-04 08:15:47.232399,280,52.8583,33.9129,999.5156,295.372,209.745,172.46,172.87905468597614,-10.662743883157223,-168.648204566814,IERS2010 latitude -10.6627 N longitude -168.6482 E elevation 416522.4 m
2023-05-04 08:16:02.907197,281,53.1127,34.0383,999.5005,295.372,209.745,173.309,173.74695316343133,-9.870835347339018,-168.06427586968604,IERS2010 latitude -9.8708 N longitude -168.0643 E elevation 416396.2 m
2023-05-04 08:16:18.584147,282,52.8215,34.0562,999.5181,295.372,209.745,174.194,174.6390851520617,-9.079346454380588,-167.4846779947443,IERS2010 latitude -9.0793 N longitude -167.4847 E elevation 416276.4 m
2023-05-04 08:16:34.282035,283,52.7081,34.0204,999.5295,295.372,209.745,175.083,175.53035653685666,-8.284696473644852,-166.906449703076,IERS2010 latitude -8.2847 N longitude -166.9064 E elevation 416162.8 m
2023-05-04 08:16:49.974939,284,52.8184,33.9129,999.5388,295.372,209.745,175.972,176.40748943006972,-7.489237378792957,-166.33097748982746,IERS2010 latitude -7.4892 N longitude -166.3310 E elevation 416055.7 m
2023-05-04 08:17:05.674235,285,52.9073,34.0741,999.564,295.372,209.745,176.855,177.31115077801908,-6.692469660008426,-165.75756730206817,IERS2010 latitude -6.6925 N longitude -165.7576 E elevation 415955.1 m
2023-05-04 08:17:21.377402,286,52.9472,33.9667,999.5295,295.372,209.745,177.769,178.22717476836615,-5.89483041952144,-165.18620616962272,IERS2010 latitude -5.8948 N longitude -165.1862 E elevation 415861.3 m
2023-05-04 08:17:37.111234,287,53.0483,33.9846,999.5574,295.372,209.745,178.687,179.14653189102822,-5.0944362587512995,-164.61522730783403,IERS2010 latitude -5.0944 N longitude -164.6152 E elevation 415774.0 m
2023-05-04 08:17:52.804071,288,52.892,33.9846,999.5427,295.372,209.745,179.618,180.0930768090526,-4.295736142081329,-164.04747915712215,IERS2010 latitude -4.2957 N longitude -164.0475 E elevation 415693.8 m
2023-05-04 08:18:08.506259,289,53.1035,33.9667,999.5212,295.372,209.745,180.581,181.07525801170044,-3.49597500678794,-163.48067519220064,IERS2010 latitude -3.4960 N longitude -163.4807 E elevation 415620.5 m
2023-05-04 08:18:24.207966,290,53.0085,33.8413,999.5505,295.372,209.745,181.578,182.07616759305245,-2.69599249342893,-162.9150926487378,IERS2010 latitude -2.6960 N longitude -162.9151 E elevation 415554.1 m
2023-05-04 08:18:39.926283,291,53.1464,33.8592,999.5383,295.372,209.745,182.581,183.0881557412382,-1.8943985261086493,-162.34943347866476,IERS2010 latitude -1.8944 N longitude -162.3494 E elevation 415494.7 m
